{"results": [{"location": {"address": "2026 S Clark St", "address_extended": "Ste 103", "census_block": "170318411001014", "country": "US", "cross_street": "", "dma": "Chicago", "formatted_address": "2026 S Clark St, Chicago, IL 60616", "locality": "Chicago", "postcode": "60616", "region": "IL"}, "name": "Qing Xiang Yua", "rating": 9.1}, {"location": {"address": "1141 S Jefferson St", "census_block": "170318419002021", "country": "US", "cross_street": "at Roosevelt Rd.", "dma": "Chicago", "formatted_address": "1141 S Jefferson St (at Roosevelt Rd.), Chicago, IL 60607", "locality": "Chicago", "postcode": "60607", "region": "IL"}, "name": "Manny's Cafeteria & Delicatessen", "rating": 9.1}, {"location": {"address": "1416 S Michigan Ave", "census_block": "170313301023001", "country": "US", "cross_street": "", "dma": "Chicago", "formatted_address": "1416 S Michigan Ave, Chicago, IL 60605", "locality": "Chicago", "postcode": "60605", "region": "IL"}, "name": "Victory Tap", "rating": 9.1}, {"location": {"address": "114 N Green St", "census_block": "170318330001030", "country": "US", "cross_street": "", "dma": "Chicago", "formatted_address": "114 N Green St, Chicago, IL 60607", "locality": "Chicago", "postcode": "60607", "region": "IL"}, "name": "Trivoli Tavern", "rating": 9.4}, {"location": {"address": "112 N Green St", "census_block": "170318330001030", "country": "US", "cross_street": "btwn Washington Blvd & Randolph St", "dma": "Chicago", "formatted_address": "112 N Green St (btwn Washington Blvd & Randolph St), Chicago, IL 60607", "locality": "Chicago", "postcode": "60607", "region": "IL"}, "name": "One Twelve N Green Street", "rating": 9.3}, {"location": {"address": "901 W Randolph St", "address_extended": "901 W Randolph St", "census_block": "170318330001044", "country": "US", "cross_street": "", "dma": "Chicago", "formatted_address": "901 W Randolph St, Chicago, IL 60607", "locality": "Chicago", "postcode": "60607", "region": "IL"}, "name": "J.P. Graziano Grocery & Sub Shop", "rating": 9.2}, {"location": {"address": "615 W Randolph St", "address_extended": "Ste A", "census_block": "170312801001012", "country": "US", "cross_street": "at N Jefferson St", "dma": "Chicago", "formatted_address": "615 W Randolph St (at N Jefferson St), Chicago, IL 60661", "locality": "Chicago", "postcode": "60661", "region": "IL"}, "name": "Avec", "rating": 9.2}, {"location": {"address": "825 W Fulton Market", "census_block": "170318330001021", "country": "US", "cross_street": "at N Green St", "dma": "Chicago", "formatted_address": "825 W Fulton Market (at N Green St), Chicago, IL 60607", "locality": "Chicago", "postcode": "60607", "region": "IL"}, "name": "Publican Quality Meats (PQM)", "rating": 9.4}, {"location": {"address": "302 N Green St", "address_extended": "Fl 3", "census_block": "170318330001019", "country": "US", "cross_street": "Fulton St", "dma": "Chicago", "formatted_address": "302 N Green St (Fulton St), Chicago, IL 60607", "locality": "Chicago", "postcode": "60607", "region": "IL"}, "name": "Aba", "rating": 9.4}, {"location": {"address": "233 N Canal St", "census_block": "170312801002002", "country": "US", "cross_street": "Fulton", "dma": "Chicago", "formatted_address": "233 N Canal St (Fulton), Chicago, IL 60606", "locality": "Chicago", "postcode": "60606", "region": "IL"}, "name": "Gibsons Italia", "rating": 9.1}], "context": {"geo_bounds": {"circle": {"center": {"latitude": 41.85003, "longitude": -87.65005}, "radius": 17060}}}}